{"type":"FeatureCollection", "features": [
{"type":"Feature","geometry":{"type":"Point","coordinates":[-111.48424270145773,36.93742703966791]},"properties":{"NAME":"Glen Canyon Dam","TYPE":"Storage","LAKE_NAME":"Lake Powell","RIVER_NAME":"Colorado River","HYPERLINK":"https://www.usbr.gov/projects/index.php?id=144","OWNER":"Bureau of Reclamation"}},
{"type":"Feature","geometry":{"type":"Point","coordinates":[-114.5697322617527,35.196005586663304]},"properties":{"NAME":"Davis Dam","TYPE":"Storage","LAKE_NAME":"Lake Mohave","RIVER_NAME":"Colorado River","HYPERLINK":"https://www.usbr.gov/projects/index.php?id=47","OWNER":"Bureau of Reclamation"}},
{"type":"Feature","geometry":{"type":"Point","coordinates":[-114.73773089493663,36.01608684764266]},"properties":{"NAME":"Hoover Dam","TYPE":"Storage","LAKE_NAME":"Lake Mead","RIVER_NAME":"Colorado River","HYPERLINK":"https://www.usbr.gov/projects/index.php?id=122","OWNER":"Bureau of Reclamation"}},
{"type":"Feature","geometry":{"type":"Point","coordinates":[-114.13927281966825,34.296430361674034]},"properties":{"NAME":"Parker Dam","TYPE":"Storage","LAKE_NAME":"Lake Havasu","RIVER_NAME":"Colorado River","HYPERLINK":"https://www.usbr.gov/projects/index.php?id=207","OWNER":"Bureau of Reclamation"}},
{"type":"Feature","geometry":{"type":"Point","coordinates":[-114.500001828702,32.82818063355341]},"properties":{"NAME":"Laguna Dam","TYPE":"Diversion","LAKE_NAME":"Mittry Lake","RIVER_NAME":"Colorado River","HYPERLINK":"https://www.usbr.gov/projects/index.php?id=297","OWNER":"Bureau of Reclamation"}},
{"type":"Feature","geometry":{"type":"Point","coordinates":[-114.46473355293087,32.88306056279928]},"properties":{"NAME":"Imperial Dam","TYPE":"Diversion","LAKE_NAME":"Martinez Lake","RIVER_NAME":"Colorado River","HYPERLINK":"https://www.usbr.gov/projects/index.php?id=150","OWNER":"Bureau of Reclamation"}},
{"type":"Feature","geometry":{"type":"Point","coordinates":[-114.72856132730094,32.70521595085148]},"properties":{"NAME":"Morelos Dam","TYPE":"Diversion","LAKE_NAME":"Colorado River","RIVER_NAME":"Colorado River","HYPERLINK":"","OWNER":"International Boundary and Water Commission"}},
{"type":"Feature","geometry":{"type":"Point","coordinates":[-105.86725293493805,40.14864909384397]},"properties":{"NAME":"Granby Dam","TYPE":"Storage","LAKE_NAME":"Lake Granby","RIVER_NAME":"Colorado River","HYPERLINK":"https://www.usbr.gov/projects/index.php?id=291","OWNER":"Bureau of Reclamation"}},
{"type":"Feature","geometry":{"type":"Point","coordinates":[-105.8410538283915,40.20773621333669]},"properties":{"NAME":"Shadow Mountain Dam","TYPE":"Storage","LAKE_NAME":"Shadow Mountain Reservoir","RIVER_NAME":"Colorado River","HYPERLINK":"https://www.usbr.gov/projects/index.php?id=235","OWNER":"Bureau of Reclamation"}},
{"type":"Feature","geometry":{"type":"Point","coordinates":[-114.51178717096911,33.73177564865984]},"properties":{"NAME":"Palo Verde Diversion Dam","TYPE":"Diversion","LAKE_NAME":"Colorado River","RIVER_NAME":"Colorado River","HYPERLINK":"https://www.usbr.gov/projects/index.php?id=201","OWNER":"Bureau of Reclamation"}},
{"type":"Feature","geometry":{"type":"Point","coordinates":[-114.27709262005244,34.16856768776604]},"properties":{"NAME":"Headgate Rock Dam","TYPE":"Diversion","LAKE_NAME":"Moovalya Lake","RIVER_NAME":"Colorado River","HYPERLINK":"","OWNER":"Bureau of Indian Affairs"}},
{"type":"Feature","geometry":{"type":"Point","coordinates":[-114.47802597449562,32.90962380918182]},"properties":{"NAME":"Senator Wash Dam","TYPE":"Storage","LAKE_NAME":"Senator Wash Reservoir","RIVER_NAME":"Colorado River","HYPERLINK":"https://www.usbr.gov/projects/index.php?id=328","OWNER":"Bureau of Reclamation"}}
]}